City,Lat,Lng,Max Temp,Humidity,Cloudiness,Wind Speed,Country,Weather Description
Jamestown,42.097,-79.2353,78.12,81,90,5.99,US,light rain
Rikitea,-23.1203,-134.9692,69.21,54,0,0.89,PF,clear sky
Narsaq,60.9167,-46.05,50.22,84,89,4.76,GL,overcast clouds
Bengkulu,-3.8004,102.2655,75.06,88,9,4.21,ID,clear sky
Santa Cruz,-17.8,-63.1667,89.65,35,20,26.46,BO,few clouds
Mandurah,-32.55,115.7,55.22,69,100,16.53,AU,overcast clouds
Lorengau,-2.0226,147.2712,80.6,76,67,6.67,PG,broken clouds
Bluff,-46.6,168.3333,42.8,72,100,11.79,NZ,light rain
Ossora,59.2353,163.0719,58.15,87,99,5.39,RU,overcast clouds
Tuktoyaktuk,69.4541,-133.0374,60.8,51,40,16.11,CA,scattered clouds
Busselton,-33.65,115.3333,57.09,73,97,15.86,AU,overcast clouds
Tucurui,-3.7661,-49.6725,89.49,39,88,3.33,BR,overcast clouds
Bethel,41.3712,-73.414,85.08,55,40,1.01,US,scattered clouds
Mount Isa,-20.7333,139.5,55.17,38,56,13.8,AU,broken clouds
Arlit,18.7369,7.3853,99.32,27,98,11.41,NE,overcast clouds
Hermanus,-34.4187,19.2345,52.9,57,14,4.81,ZA,few clouds
Lebu,-37.6167,-73.65,52.75,74,98,14.67,CL,overcast clouds
Kapaa,22.0752,-159.319,82.38,85,90,1.99,US,moderate rain
Lodwar,3.1191,35.5973,75.81,63,99,3.44,KE,overcast clouds
Kinablangan,7.6947,126.5503,79.81,70,100,4.88,PH,overcast clouds
Carnarvon,-24.8667,113.6333,59.07,72,100,5.75,AU,overcast clouds
Port Alfred,-33.5906,26.891,54.99,74,0,20.04,ZA,clear sky
Dikson,73.5069,80.5464,37.96,95,100,24.09,RU,overcast clouds
Petropavl,54.8753,69.1628,72.95,58,100,12.8,KZ,overcast clouds
East London,-33.0153,27.9116,55.81,71,0,15.12,ZA,clear sky
Vaini,-21.2,-175.2,75.36,100,20,2.3,TO,few clouds
Atuona,-9.8,-139.0333,78.64,68,50,16.26,PF,scattered clouds
Punta Arenas,-53.15,-70.9167,42.91,70,75,19.57,CL,broken clouds
Lasa,46.6166,10.7002,73.31,92,31,4.27,IT,scattered clouds
Barrow,71.2906,-156.7887,42.82,81,90,4.61,US,light rain
Richards Bay,-28.783,32.0377,55.18,77,19,4.03,ZA,few clouds
Luderitz,-26.6481,15.1594,64.58,30,15,6.49,NA,few clouds
Muroto,33.2833,134.15,77.54,83,100,8.77,JP,overcast clouds
Gondanglegi,-7.7479,112.0132,71.38,88,5,10.11,ID,clear sky
Caravelas,-17.7125,-39.2481,72.81,62,71,10.0,BR,broken clouds
Roebourne,-20.7833,117.1333,70.02,44,100,6.8,AU,overcast clouds
Saint-Philippe,-21.3585,55.7679,67.59,76,65,5.28,RE,broken clouds
New Norfolk,-42.7826,147.0587,45.91,66,91,3.0,AU,overcast clouds
Albany,42.6001,-73.9662,84.02,46,74,1.99,US,broken clouds
Sawakin,19.1059,37.3321,90.21,54,100,4.23,SD,overcast clouds
Mahanoro,-19.9,48.8,67.06,92,100,11.63,MG,moderate rain
Hobart,-42.8794,147.3294,46.26,63,75,3.0,AU,broken clouds
Kaitangata,-46.2817,169.8464,36.16,75,84,4.83,NZ,broken clouds
Velka Bites,49.2884,16.2274,73.27,53,0,9.22,CZ,clear sky
Cape Town,-33.9258,18.4232,53.11,77,8,3.44,ZA,smoke
Port Elizabeth,-33.918,25.5701,55.69,76,40,10.36,ZA,scattered clouds
Mataura,-46.1927,168.8643,42.48,89,100,3.78,NZ,overcast clouds
Adrar,20.5022,-10.0711,94.91,24,60,6.46,MR,broken clouds
Kahului,20.8947,-156.47,83.97,85,40,21.85,US,scattered clouds
Grand Gaube,-20.0064,57.6608,70.2,77,6,1.99,MU,clear sky
Yellowknife,62.456,-114.3525,56.32,54,75,4.0,CA,broken clouds
Iqaluit,63.7506,-68.5145,42.53,87,90,8.05,CA,light rain
Kavaratti,10.5669,72.642,82.22,79,62,18.43,IN,broken clouds
Cap-Aux-Meules,47.3821,-61.8597,62.65,67,20,10.36,CA,few clouds
Georgetown,5.4112,100.3354,84.88,86,20,3.44,MY,few clouds
Chokurdakh,70.6333,147.9167,41.5,75,59,15.55,RU,broken clouds
Challapata,-18.9,-66.7667,52.66,26,0,7.81,BO,clear sky
Butaritari,3.0707,172.7902,83.68,72,100,16.67,KI,overcast clouds
Gat,31.61,34.7642,81.28,100,1,3.24,IL,clear sky
Bozoum,6.3193,16.3799,68.31,95,98,3.98,CF,overcast clouds
Kodiak,57.79,-152.4072,56.71,88,90,4.61,US,overcast clouds
Sapele,5.8941,5.6767,74.26,82,18,3.69,NG,few clouds
Guerrero Negro,27.9769,-114.0611,78.67,59,100,12.5,MX,overcast clouds
Bredasdorp,-34.5322,20.0403,43.92,87,19,2.3,ZA,few clouds
Tasiilaq,65.6145,-37.6368,42.96,98,100,5.08,GL,light rain
Bonthe,7.5264,-12.505,76.3,86,100,7.78,SL,light rain
Pangnirtung,66.1451,-65.7125,49.86,63,100,10.04,CA,overcast clouds
Streator,41.1209,-88.8354,92.23,69,23,3.0,US,few clouds
Urumqi,43.801,87.6005,79.75,28,0,4.47,CN,clear sky
Severo-Kurilsk,50.6789,156.125,55.36,96,48,1.43,RU,scattered clouds
Vulcana Bai,45.0833,25.3833,63.55,74,28,5.19,RO,scattered clouds
Ushuaia,-54.8,-68.3,38.86,87,75,1.14,AR,broken clouds
Eucaliptus,-17.5833,-67.5167,56.66,23,59,10.45,BO,broken clouds
Codrington,-38.2667,141.9667,45.03,68,88,22.97,AU,overcast clouds
Namibe,-15.1961,12.1522,65.75,87,0,4.03,AO,clear sky
Manta,-0.95,-80.7333,76.78,78,90,10.36,EC,overcast clouds
Khatanga,71.9667,102.5,56.7,81,49,11.36,RU,scattered clouds
Talnakh,69.4865,88.3972,48.69,87,100,0.2,RU,moderate rain
Gilgit,35.9221,74.3087,87.75,38,0,0.81,PK,clear sky
Enumclaw,47.2043,-121.9915,83.25,52,0,4.0,US,clear sky
Nanortalik,60.1432,-45.2371,43.5,97,100,12.95,GL,overcast clouds
Srednekolymsk,67.45,153.6833,49.46,65,99,14.88,RU,overcast clouds
Hilo,19.7297,-155.09,81.63,79,20,0.0,US,light rain
Roros,62.5747,11.3842,61.18,57,41,3.51,NO,scattered clouds
Kortkeros,61.8106,51.5806,42.8,85,100,4.59,RU,overcast clouds
Ahuimanu,21.4447,-157.8378,83.91,71,75,12.66,US,light rain
Manzhouli,49.6,117.4333,55.13,95,5,8.3,CN,clear sky
Nikolskoye,59.7035,30.7861,58.89,67,31,3.42,RU,scattered clouds
Naisud,11.8058,122.1939,81.34,80,74,17.78,PH,broken clouds
Divnomorskoye,44.5011,38.1353,72.01,53,0,11.68,RU,clear sky
Togur,58.3631,82.8265,61.99,72,3,3.6,RU,clear sky
New Richmond,45.123,-92.5366,93.78,42,1,12.66,US,clear sky
Kutum,14.2,24.6667,78.67,54,98,5.82,SD,overcast clouds
Faya,18.3851,42.4509,68.11,67,62,3.13,SA,broken clouds
Marsa Matruh,31.3525,27.2453,78.26,63,0,10.56,EG,clear sky
Fare,-16.7,-151.0167,77.45,72,77,11.99,PF,light rain
Ribeira Grande,38.5167,-28.7,73.8,94,75,10.36,PT,broken clouds
Winder,33.9926,-83.7202,94.14,64,1,0.0,US,clear sky
Ilulissat,69.2167,-51.1,44.62,81,75,8.05,GL,mist
Moron,-34.6534,-58.6198,61.02,85,100,5.01,AR,overcast clouds
Caohai,26.8661,104.2841,56.73,95,72,0.63,CN,broken clouds
Katsuura,35.1333,140.3,79.11,85,5,8.41,JP,clear sky
Tokmak,47.2514,35.7058,71.91,52,57,4.32,UA,broken clouds
Airai,-8.9266,125.4092,55.35,40,6,2.93,TL,clear sky
Parana,-31.732,-60.5238,71.29,62,86,7.52,AR,overcast clouds
Knysna,-34.0363,23.0471,46.78,43,36,5.19,ZA,scattered clouds
Longyearbyen,78.2186,15.6401,44.44,81,75,13.8,SJ,broken clouds
Avarua,-21.2078,-159.775,77.05,69,32,10.36,CK,scattered clouds
Lagoa,39.05,-27.9833,71.38,90,85,15.12,PT,overcast clouds
Thompson,55.7435,-97.8558,71.76,56,75,14.97,CA,broken clouds
Puerto Ayora,-0.7393,-90.3518,80.56,82,16,8.99,EC,few clouds
Ulladulla,-35.35,150.4667,50.09,55,59,18.39,AU,broken clouds
Roma,43.2128,-75.4557,83.84,45,1,8.05,US,clear sky
Constitucion,-35.3333,-72.4167,52.34,87,100,12.5,CL,overcast clouds
Salalah,17.0151,54.0924,78.89,94,75,4.61,OM,haze
Sangod,24.9167,76.2833,81.16,84,100,3.87,IN,overcast clouds
Arraial Do Cabo,-22.9661,-42.0278,73.36,68,0,13.8,BR,clear sky
Bhuj,23.2667,69.6667,81.73,83,100,13.56,IN,heavy intensity rain
Ilebo,-4.3167,20.5833,76.23,38,5,1.63,CD,clear sky
Teacapan,22.55,-105.75,82.99,73,100,2.53,MX,overcast clouds
Portland,45.5234,-122.6762,89.51,44,1,4.0,US,clear sky
Guasdualito,7.2424,-70.7324,81.57,83,100,3.87,VE,light rain
Riberalta,-10.9833,-66.1,93.4,40,20,11.5,BO,few clouds
Honiara,-9.4333,159.95,76.86,85,71,5.79,SB,broken clouds
Praya,14.9215,-23.5087,77.54,65,75,9.22,CV,broken clouds
Carutapera,-1.195,-46.02,80.04,83,90,7.0,BR,overcast clouds
Mehamn,71.0357,27.8492,44.47,85,100,24.76,NO,overcast clouds
Maceio,-9.6658,-35.7353,78.24,69,40,12.66,BR,scattered clouds
Fortuna,40.5982,-124.1573,65.32,71,1,12.66,US,clear sky
Luorong,24.4058,109.6086,78.55,84,22,2.59,CN,few clouds
Ponta Do Sol,32.6667,-17.1,74.71,81,0,5.14,PT,clear sky
San Patricio,28.017,-97.5169,96.89,36,0,15.03,US,clear sky
Lwowek Slaski,51.1107,15.5858,71.26,68,11,7.16,PL,few clouds
Luanda,-8.8368,13.2343,70.38,88,0,9.89,AO,clear sky
Darnah,32.767,22.6367,78.55,74,0,17.47,LY,clear sky
Nishihara,26.1842,127.7558,80.26,97,90,17.27,JP,mist
Vao,-22.6667,167.4833,71.46,83,2,6.53,NC,clear sky
Qaanaaq,77.484,-69.3632,41.63,67,100,1.03,GL,overcast clouds
Conceicao Da Barra,-18.5933,-39.7322,71.76,61,50,7.67,BR,scattered clouds
Tura,25.5198,90.2201,74.93,96,93,3.98,IN,overcast clouds
Ulundi,-28.3352,31.4162,44.15,87,3,3.67,ZA,clear sky
San Felipe,10.3399,-68.7425,87.71,55,100,4.32,VE,overcast clouds
Tombouctou,20.0,-3.0,100.15,20,40,5.84,ML,scattered clouds
Grand-Santi,4.25,-54.3833,77.16,96,94,2.82,GF,moderate rain
Hithadhoo,-0.6,73.0833,81.99,78,28,11.86,MV,scattered clouds
Nelson Bay,-32.7167,152.15,56.75,61,46,5.01,AU,scattered clouds
Namatanai,-3.6667,152.4333,78.1,82,19,3.69,PG,few clouds
Amapa,1.0,-52.0,82.22,71,99,1.59,BR,overcast clouds
Nanakuli,21.3906,-158.1547,84.15,69,90,10.36,US,overcast clouds
Jablah,35.3614,35.9256,82.69,74,40,6.91,SY,scattered clouds
Asau,46.4333,26.4,66.76,84,10,3.0,RO,clear sky
Souillac,-20.5167,57.5167,70.18,83,20,9.22,MU,few clouds
Beringovskiy,63.05,179.3167,52.34,88,100,8.57,RU,overcast clouds
Saldanha,-33.0117,17.9442,53.65,66,8,11.43,ZA,clear sky
Peace River,56.2501,-117.286,73.71,40,40,18.41,CA,scattered clouds
Bubaque,11.2833,-15.8333,79.59,77,100,8.12,GW,light rain
Aklavik,68.2191,-135.0107,67.03,94,90,10.36,CA,shower rain
Barra,-11.0894,-43.1417,81.9,44,29,11.34,BR,scattered clouds
West Lafayette,40.4259,-86.9081,89.29,63,90,3.0,US,overcast clouds
Labytnangi,66.6572,66.4183,57.83,66,95,9.37,RU,overcast clouds
Anloga,5.7947,0.8973,76.6,78,35,11.83,GH,scattered clouds
Khandbari,27.3747,87.2039,73.33,96,75,0.81,NP,broken clouds
Makokou,0.5738,12.8642,74.77,74,92,1.68,GA,overcast clouds
Aracaju,-10.9111,-37.0717,76.95,83,75,8.05,BR,broken clouds
Cabo San Lucas,22.8909,-109.9124,96.8,65,1,13.8,MX,clear sky
Prainha,-1.8,-53.48,89.6,45,99,5.17,BR,overcast clouds
Ocean City,39.2776,-74.5746,86.38,52,49,9.78,US,scattered clouds
Torbay,47.6666,-52.7314,68.88,72,75,14.97,CA,broken clouds
Cabinda,-5.55,12.2,72.23,88,2,9.86,AO,clear sky
Takoradi,4.8845,-1.7554,74.89,79,5,6.42,GH,clear sky
Hamois,50.3348,5.1512,61.34,94,76,7.09,BE,broken clouds
Mount Gambier,-37.8333,140.7667,44.15,66,100,14.99,AU,overcast clouds
Shakawe,-18.3667,21.85,57.4,43,0,7.09,BW,clear sky
Finale Ligure,44.1695,8.3436,78.42,79,54,3.0,IT,broken clouds
Boda,4.3189,17.4695,71.2,91,100,4.34,CF,overcast clouds
Birin,26.8865,88.0718,64.35,94,50,3.98,NP,scattered clouds
Fairmont,39.4851,-80.1426,89.76,51,66,1.01,US,broken clouds
Mana,5.6592,-53.7767,80.33,87,100,9.89,GF,moderate rain
Orbetello,42.4408,11.2196,78.8,46,44,10.36,IT,scattered clouds
Dillon,34.4166,-79.3712,91.26,41,2,5.66,US,clear sky
Skjervoy,70.0311,20.9714,47.39,90,100,4.09,NO,moderate rain
Moerai,-22.4333,-151.3333,70.54,62,62,4.9,PF,broken clouds
Sitka,57.0531,-135.33,57.09,82,75,9.22,US,light rain
Opuwo,-18.0607,13.84,59.59,14,0,7.94,NA,clear sky
Kerman,30.2832,57.0788,78.66,17,0,4.61,IR,clear sky
Pesnica Pri Mariboru,46.6069,15.6767,76.91,76,75,4.61,SI,broken clouds
Collie,-33.3667,116.15,54.99,94,69,7.18,AU,broken clouds
Kaeo,-35.1,173.7833,57.33,85,99,11.39,NZ,overcast clouds
Erenhot,43.6475,111.9767,64.63,86,100,23.09,CN,moderate rain
Zharkent,44.1628,80.0,75.34,22,0,2.73,KZ,clear sky
Bambous Virieux,-20.3428,57.7575,70.05,83,20,9.22,MU,few clouds
Baykalsk,51.5058,104.1469,55.81,70,23,6.96,RU,few clouds
Las Cruces,32.3123,-106.7783,90.37,42,1,3.0,US,clear sky
Ahipara,-35.1667,173.1667,55.76,81,100,11.12,NZ,overcast clouds
Sakakah,29.9697,40.2064,90.97,26,0,8.57,SA,clear sky
Clyde River,70.4692,-68.5914,34.03,100,90,16.11,CA,overcast clouds
Khasan,42.4308,130.6434,72.37,96,22,1.36,RU,few clouds
Vanimo,-2.6741,141.3028,74.61,92,100,3.71,PG,moderate rain
Los Llanos De Aridane,28.6585,-17.9182,69.55,93,20,16.11,ES,few clouds
Yashkul,46.1711,45.3435,79.72,33,51,4.79,RU,broken clouds
Caceres,39.522,-6.3748,77.81,31,0,14.27,ES,clear sky
Maamba,-17.3667,27.15,57.85,70,0,3.94,ZM,clear sky
Abong Mbang,3.9833,13.1833,68.47,94,42,3.22,CM,scattered clouds
Chapleau,47.8405,-83.4034,62.69,94,90,8.05,CA,heavy intensity rain
Waipawa,-41.4122,175.5153,46.92,88,3,7.7,NZ,clear sky
Pevek,69.7008,170.3133,36.68,92,100,10.94,RU,overcast clouds
La Ronge,55.1001,-105.2842,71.85,53,75,12.66,CA,broken clouds
Cidreira,-30.1811,-50.2056,63.59,65,0,5.57,BR,clear sky
Palmer,42.1584,-72.3287,85.14,39,40,4.61,US,scattered clouds
Alvares Machado,-22.0794,-51.4719,81.99,18,0,6.91,BR,clear sky
Yulara,-25.2406,130.9889,40.84,65,52,5.75,AU,broken clouds
Dunedin,-45.8742,170.5036,44.8,57,91,10.0,NZ,overcast clouds
Lapy,52.9911,22.8842,68.25,61,98,3.53,PL,overcast clouds
Martigues,43.4,5.05,80.46,67,0,4.61,FR,clear sky
La Carlota,10.4233,122.9208,77.49,88,97,9.19,PH,overcast clouds
Zhicheng,30.2956,111.5047,74.64,90,63,6.02,CN,light rain
Geraldton,-28.7667,114.6,54.01,94,75,9.22,AU,broken clouds
Abu Samrah,35.3029,37.1841,79.65,58,39,11.1,SY,scattered clouds
Westport,41.1415,-73.3579,85.75,52,1,1.99,US,clear sky
Sur,22.5667,59.5289,89.82,60,99,12.57,OM,overcast clouds
Itoman,26.1247,127.6694,80.98,96,75,18.41,JP,mist
Puerto Cabezas,14.0351,-83.3888,89.56,70,40,11.5,NI,scattered clouds
Sao Filipe,14.8961,-24.4956,74.73,74,76,8.9,CV,broken clouds
Olinda,-8.0089,-34.8553,74.93,69,40,13.8,BR,scattered clouds
Porbandar,21.6422,69.6093,81.84,84,100,18.68,IN,overcast clouds
Viet Tri,21.3019,105.4308,82.35,88,83,0.38,VN,broken clouds
Doctor Arroyo,23.6667,-100.1833,81.27,20,5,8.25,MX,clear sky
Saint George,37.1041,-113.5841,99.36,36,1,5.75,US,clear sky
Upington,-28.4478,21.2561,46.78,31,0,4.61,ZA,clear sky
Peniche,39.3558,-9.3811,69.28,85,34,8.93,PT,scattered clouds
Primorka,47.2836,39.0625,77.77,47,9,4.9,RU,clear sky
Iida,35.5197,137.8207,72.03,100,36,2.51,JP,scattered clouds
Tuatapere,-46.1333,167.6833,42.82,81,100,7.23,NZ,light rain
Atasu,48.6814,71.6433,80.53,23,7,8.43,KZ,clear sky
Lusambo,-4.9667,23.45,73.67,39,2,2.28,CD,clear sky
Marawi,7.9986,124.2928,71.65,89,22,6.53,PH,few clouds
Abu Zabad,12.35,29.25,80.08,62,86,3.8,SD,overcast clouds
Borogontsy,62.6683,131.1683,57.79,99,42,3.89,RU,scattered clouds
Novyy Karachay,43.8208,41.9032,61.57,95,67,2.28,RU,broken clouds
Puerto Leguizamo,-0.1934,-74.7819,73.09,96,100,1.03,CO,overcast clouds
Port Hardy,50.6996,-127.4199,60.98,94,75,3.44,CA,fog
Saint Anthony,45.0205,-93.218,92.55,34,1,3.0,US,clear sky
Beroroha,-21.6667,45.1667,63.5,50,4,9.69,MG,clear sky
Sao Miguel,-5.4667,-35.3667,81.37,60,10,19.8,BR,clear sky
Nyagan,62.1406,65.3936,54.54,89,41,7.4,RU,scattered clouds
Hinjilikatu,19.4833,84.75,80.94,76,100,3.56,IN,overcast clouds
Imeni Poliny Osipenko,52.4201,136.4853,69.31,82,99,3.18,RU,overcast clouds
Santos Dumont,-21.4567,-43.5525,68.97,48,0,4.85,BR,clear sky
Tafresh,34.692,50.013,82.36,17,92,8.5,IR,overcast clouds
Rapid Valley,44.0625,-103.1463,92.64,31,1,1.01,US,clear sky
Meulaboh,4.1363,96.1285,76.68,87,100,4.03,ID,overcast clouds
Sovetskiy,61.3614,63.5842,52.2,85,100,8.5,RU,overcast clouds
Kuusamo,65.9667,29.1833,57.24,62,0,5.75,FI,clear sky
Lydenburg,-25.0978,30.4597,38.26,92,0,3.49,ZA,clear sky
Broome,42.2506,-75.833,82.09,58,1,1.01,US,clear sky
Santa Teresa,10.2341,-66.6631,83.32,84,100,1.72,VE,overcast clouds
Saravan,39.7196,45.6483,72.25,80,12,8.95,AM,few clouds
Rawson,-43.3002,-65.1023,50.97,37,99,17.29,AR,overcast clouds
Avera,33.194,-82.5271,91.27,41,0,5.53,US,clear sky
Vestmannaeyjar,63.4427,-20.2734,51.6,84,59,11.79,IS,broken clouds
Pochutla,15.7432,-96.4661,91.22,53,100,6.22,MX,overcast clouds
Baherden,38.4362,57.4316,93.65,23,0,6.91,TM,clear sky
Ambon,-3.6954,128.1814,78.06,83,100,11.18,ID,overcast clouds
Sao Felix Do Xingu,-6.6447,-51.995,94.23,24,52,4.63,BR,broken clouds
Margate,51.3813,1.3862,65.97,85,100,2.33,GB,overcast clouds
Havelock,34.8791,-76.9013,84.97,59,0,4.0,US,clear sky
Pangkalanbuun,-2.6833,111.6167,72.37,96,18,2.28,ID,few clouds
Lagunas,-5.2269,-75.6753,93.13,35,78,0.65,PE,broken clouds
Thai Binh,20.45,106.3333,82.4,91,57,4.21,VN,broken clouds
Arica,-18.475,-70.3042,62.83,72,75,11.5,CL,broken clouds
Huarmey,-10.0681,-78.1522,68.58,71,10,10.25,PE,clear sky
Camacha,33.0833,-16.3333,70.56,73,40,12.66,PT,scattered clouds
Esperance,-33.8667,121.9,52.29,80,1,17.9,AU,clear sky
Shimoda,34.6667,138.95,75.85,85,2,8.55,JP,clear sky
Senneterre,48.3835,-77.2328,73.62,51,100,12.88,CA,overcast clouds
Roslavl,53.9528,32.8639,56.84,74,8,4.45,RU,clear sky
Jiwani,25.05,61.7417,82.42,82,100,4.34,PK,overcast clouds
Poum,-20.2333,164.0167,71.76,82,7,7.31,NC,clear sky
Silopi,37.2497,42.4694,89.26,20,0,2.93,TR,clear sky
Ilhabela,-23.7781,-45.3581,67.37,74,0,2.26,BR,clear sky
Morondava,-20.2833,44.2833,72.54,41,2,19.44,MG,clear sky
Mkushi,-13.6202,29.3939,52.68,79,26,7.07,ZM,scattered clouds
San Cristobal,7.7669,-72.225,80.78,65,100,5.61,VE,overcast clouds
Jos,9.9167,8.9,64.36,95,99,5.7,NG,overcast clouds
Nenjiang,49.1833,125.2167,64.31,98,12,7.63,CN,few clouds
Palimbang,6.2106,124.1894,78.42,87,92,3.96,PH,overcast clouds
Kralendijk,12.15,-68.2667,87.78,66,75,13.8,BQ,broken clouds
Tarakan,3.3,117.6333,79.65,80,100,3.18,ID,overcast clouds
Kruisfontein,-34.0033,24.7314,47.26,48,2,7.54,ZA,clear sky
Minab,27.1467,57.0801,92.7,50,55,2.66,IR,broken clouds
Birao,10.2849,22.7882,79.75,66,100,6.62,CF,overcast clouds
Mackay,-21.15,149.2,61.05,55,0,10.65,AU,clear sky
Luganville,-15.5333,167.1667,77.95,83,63,1.61,VU,broken clouds
Christchurch,-43.5333,172.6333,45.91,87,4,4.0,NZ,clear sky
Zhigansk,66.7697,123.3711,55.78,75,29,14.83,RU,scattered clouds
Toora-Khem,52.4675,96.11,59.59,97,100,0.89,RU,light rain
Plainview,40.7765,-73.4673,85.48,56,1,3.0,US,clear sky
Ferme-Neuve,46.7001,-75.4493,76.78,46,100,11.27,CA,overcast clouds
Marmaris,36.855,28.2742,78.78,64,21,3.65,TR,few clouds
Klaksvik,62.2266,-6.589,50.92,93,84,16.91,FO,broken clouds
Taga,46.95,24.05,64.72,58,88,3.4,RO,overcast clouds
Provideniya,64.3833,-173.3,47.01,98,100,12.17,RU,light rain
Upernavik,72.7868,-56.1549,39.83,85,100,5.5,GL,overcast clouds
Jadu,31.953,12.0261,78.46,34,0,9.42,LY,clear sky
Normandin,48.8333,-72.5321,82.71,39,100,9.22,CA,overcast clouds
Mori,34.8333,137.9333,76.44,88,3,3.42,JP,clear sky
Saskylakh,71.9167,114.0833,57.42,55,100,6.46,RU,overcast clouds
Kommunisticheskiy,61.6789,64.4819,53.44,88,45,8.23,RU,scattered clouds
Guacimo,10.2104,-83.6807,85.01,97,99,2.08,CR,overcast clouds
Laurel,39.0993,-76.8483,86.97,53,75,4.0,US,broken clouds
Andahuaylas,-13.6556,-73.3872,66.27,28,2,9.95,PE,clear sky
Jijiga,9.35,42.8,61.21,77,100,21.74,ET,overcast clouds
Mitsamiouli,-11.3847,43.2844,75.67,73,8,24.29,KM,light rain
Dimona,31.0667,35.0333,69.85,73,0,14.09,IL,clear sky
Bongandanga,1.5,21.05,75.88,61,100,1.79,CD,overcast clouds
Tazovskiy,67.4667,78.7,48.85,87,100,6.96,RU,overcast clouds
Cherskiy,68.75,161.3,46.78,71,92,3.42,RU,overcast clouds
Sire,12.9299,5.2043,82.56,61,75,7.67,NG,broken clouds
Buala,-8.145,159.5921,79.81,84,88,8.79,SB,light rain
Coquimbo,-29.9533,-71.3436,56.93,71,75,5.75,CL,broken clouds
Poya,-21.35,165.15,66.56,88,0,3.76,NC,clear sky
Victoria,22.2855,114.1577,82.38,92,97,5.01,HK,overcast clouds
Sawtell,-30.3833,153.1,59.18,41,0,12.66,AU,clear sky
Anadyr,64.75,177.4833,55.9,100,90,5.99,RU,light rain
Lata,40.1629,-8.3327,64.92,84,30,4.61,PT,scattered clouds
Gizo,-8.103,156.8419,80.94,78,44,4.61,SB,moderate rain
Santa Luzia,-19.7697,-43.8514,75.34,37,0,4.61,BR,clear sky
Akdepe,42.0551,59.3788,84.29,15,2,9.19,TM,clear sky
Norman Wells,65.282,-126.8329,66.24,37,40,16.11,CA,scattered clouds
Panzhihua,26.5851,101.7128,69.19,92,15,1.7,CN,few clouds
Orlik,52.5178,99.825,53.82,90,94,1.36,RU,overcast clouds
Hovd,48.0056,91.6419,65.8,46,31,2.57,MN,scattered clouds
Castro,-24.7911,-50.0119,65.17,59,0,3.62,BR,clear sky
Olafsvik,64.8945,-23.7142,50.47,90,89,12.57,IS,overcast clouds
Kudinovo,54.9994,36.2533,51.85,72,4,2.91,RU,clear sky
Sibolga,1.7427,98.7792,76.87,83,100,2.86,ID,light rain
Kavieng,-2.5744,150.7967,81.7,77,14,10.27,PG,few clouds
Mar Del Plata,-38.0023,-57.5575,51.01,56,75,14.0,AR,broken clouds
Iranshahr,27.2025,60.6848,86.34,58,75,6.91,IR,broken clouds
Vaitape,-16.5167,-151.75,76.23,79,24,13.78,PF,light rain
Oytal,42.9057,73.2697,77.85,27,0,2.48,KZ,clear sky
Grindavik,63.8424,-22.4338,51.75,87,75,16.11,IS,broken clouds
Laizhou,37.1717,119.9214,74.26,83,78,2.3,CN,broken clouds
Nemuro,43.3236,145.575,61.61,98,100,8.5,JP,overcast clouds
Hofn,64.2539,-15.2082,52.54,99,100,17.43,IS,overcast clouds
Sept-Iles,50.2001,-66.3821,66.25,83,75,4.0,CA,broken clouds
Isangel,-19.55,169.2667,75.97,84,7,3.89,VU,clear sky
Bizhbulyak,53.6967,54.2642,59.86,71,62,6.02,RU,broken clouds
Stromness,58.965,-3.296,55.65,90,8,16.91,GB,clear sky
Hami,42.8,93.45,87.03,36,0,6.04,CN,clear sky
Parakai,-36.65,174.4333,57.65,98,26,11.27,NZ,scattered clouds
Sibu,2.3,111.8167,77.31,94,40,2.3,MY,scattered clouds
San Quintin,30.4833,-115.95,74.32,69,87,12.86,MX,overcast clouds
Serik,36.9169,31.0989,87.67,56,100,3.4,TR,overcast clouds
Puertollano,38.6871,-4.1073,82.08,17,82,6.78,ES,broken clouds
Samarai,-10.6167,150.6667,78.91,87,88,9.93,PG,overcast clouds
Barra Do Garcas,-15.89,-52.2567,90.18,25,0,0.0,BR,clear sky
Boyuibe,-20.4167,-63.2833,87.71,26,6,7.76,BO,clear sky
Karratha,-20.7377,116.8463,69.71,48,100,6.73,AU,overcast clouds
Verkhnyaya Inta,65.9811,60.3094,47.82,92,100,9.4,RU,overcast clouds
Kautokeino,69.0125,23.0412,51.98,78,100,9.19,NO,overcast clouds
Vila Velha,-20.3297,-40.2925,76.96,54,40,6.91,BR,scattered clouds
Rockport,28.0206,-97.0544,95.23,72,1,4.0,US,clear sky
Atherton,53.5237,-2.4935,66.34,67,100,1.01,GB,overcast clouds
Porec,45.2258,13.5939,77.36,69,7,5.01,HR,clear sky
Scarborough,54.2797,-0.4044,62.42,82,100,7.0,GB,overcast clouds
Ancud,-41.8697,-73.8203,47.73,69,100,4.45,CL,overcast clouds
Fairbanks,64.8378,-147.7164,61.14,88,40,5.99,US,scattered clouds
Rancho Palos Verdes,33.7445,-118.387,91.67,77,40,1.99,US,scattered clouds
Lazaro Cardenas,17.9583,-102.2,85.41,73,66,9.17,MX,broken clouds
Muzhi,65.3667,64.6667,56.37,80,100,7.61,RU,overcast clouds
Wanning,18.8003,110.3967,79.16,86,44,8.08,CN,scattered clouds
Arkhangelsk,64.5401,40.5433,51.91,82,75,4.47,RU,broken clouds
Sistranda,63.7256,8.834,58.89,87,100,6.46,NO,overcast clouds
Revelstoke,50.9832,-118.2023,77.02,41,20,3.44,CA,haze
Ivanava,52.1451,25.5365,65.64,75,60,1.66,BY,broken clouds
Diffa,13.3154,12.6113,85.89,50,10,9.35,NE,clear sky
Fukue,32.6881,128.8419,79.63,82,100,19.1,JP,heavy intensity rain
Camabatela,-8.1881,15.375,65.66,28,0,1.7,AO,clear sky
Sechura,-5.5569,-80.8222,72.23,66,9,17.96,PE,clear sky
Okhotsk,59.3833,143.3,56.07,94,100,10.4,RU,overcast clouds
Buraydah,26.326,43.975,99.05,14,3,8.34,SA,clear sky
Bilma,18.6853,12.9164,89.44,41,100,4.74,NE,overcast clouds
Lamu,-2.2717,40.902,77.22,79,4,23.2,KE,clear sky
Yar-Sale,66.8333,70.8333,50.31,82,0,9.1,RU,clear sky
Araouane,18.9048,-3.5265,99.14,25,65,4.68,ML,broken clouds
Cayenne,4.9333,-52.3333,83.08,79,0,1.01,GF,clear sky
Manokwari,-0.8667,134.0833,78.26,73,100,3.62,ID,overcast clouds
Berdigestyakh,62.0989,126.6992,58.03,71,98,7.76,RU,overcast clouds
Alofi,-19.0595,-169.9187,78.69,89,40,4.61,NU,scattered clouds
Griffith,41.5284,-87.4237,93.97,62,1,1.99,US,clear sky
Seoul,37.5683,126.9778,78.31,94,45,2.3,KR,scattered clouds
Popondetta,-8.7537,148.2534,73.31,88,95,3.02,PG,overcast clouds
Jeremie,18.65,-74.1167,84.36,74,99,7.47,HT,overcast clouds
Baykit,61.67,96.37,63.34,75,6,1.77,RU,clear sky
Walvis Bay,-22.9575,14.5053,69.1,8,7,14.97,NA,clear sky
Rio Grande,-32.035,-52.0986,69.91,68,91,4.92,BR,overcast clouds
Kashi,39.4547,75.9797,83.23,39,75,8.95,CN,broken clouds
Iberia,29.9502,-91.7507,94.1,55,20,5.75,US,few clouds
Chuy,-33.6971,-53.4616,59.16,81,95,5.84,UY,overcast clouds
Leningradskiy,69.3833,178.4167,37.67,93,100,5.1,RU,light rain
Fort Saint James,54.4333,-124.25,68.41,40,98,8.34,CA,overcast clouds
Konevo,62.1215,39.3192,52.86,67,100,5.68,RU,overcast clouds
Khani,41.9563,42.9566,63.97,98,99,1.45,GE,overcast clouds
Solnechnyy,50.7214,136.6319,71.71,66,20,4.0,RU,few clouds
Berlevag,70.8578,29.0864,45.07,86,100,26.44,NO,overcast clouds
Redcliffe,-27.2307,153.0973,59.94,50,0,11.5,AU,clear sky
Ozernovskiy,51.5,156.5167,54.66,98,95,3.02,RU,overcast clouds
Solwezi,-12.1688,26.3894,57.63,68,29,11.05,ZM,scattered clouds
Flin Flon,54.7682,-101.865,73.24,53,75,6.91,CA,smoke
Aberystwyth,52.4155,-4.0829,66.31,85,41,5.3,GB,scattered clouds
Pathein,16.7833,94.7333,78.98,92,100,8.57,MM,overcast clouds
Dondo,-19.6094,34.7431,69.31,72,25,9.71,MZ,light rain
Izazi,-7.2,35.7333,69.76,51,2,11.14,TZ,clear sky
Washington,47.5001,-120.5015,88.93,21,0,4.63,US,clear sky
Maldonado,-34.6667,-54.9167,61.23,85,100,10.16,UY,overcast clouds
Bealanana,-14.55,48.7333,49.46,98,22,4.23,MG,few clouds
Juneau,58.3019,-134.4197,57.25,94,90,1.99,US,moderate rain
North Platte,41.1239,-100.7654,91.98,36,1,4.0,US,clear sky
Cheney,47.4874,-117.5758,90.75,22,20,5.75,US,smoke
Aquiraz,-3.9014,-38.3911,85.21,55,36,9.82,BR,scattered clouds
Yining,29.0361,114.5636,73.72,94,70,2.71,CN,broken clouds
Kalmunai,7.4167,81.8167,81.39,70,100,6.26,LK,overcast clouds
Pando,-34.7167,-55.95,64.8,77,0,8.05,UY,clear sky
Swinford,53.95,-8.95,70.34,87,12,3.4,IE,few clouds
Hay River,60.8156,-115.7999,53.58,71,75,11.5,CA,broken clouds
Lima,-12.0432,-77.0282,62.85,72,90,9.22,PE,overcast clouds
Lompoc,34.6391,-120.4579,91.02,72,90,13.8,US,overcast clouds
Praia Da Vitoria,38.7333,-27.0667,79.05,69,20,14.74,PT,few clouds
Beloha,-25.1667,45.05,62.28,51,68,7.61,MG,broken clouds
Kahuta,33.5913,73.3868,85.86,53,0,5.55,PK,clear sky
Aykhal,66.0,111.5,58.5,58,0,7.96,RU,clear sky
Sayat,38.7839,63.8803,84.07,11,0,14.05,TM,clear sky
Melfi,40.9965,15.6514,78.22,43,2,4.05,IT,clear sky
Marrakesh,31.6315,-8.0083,96.87,26,75,2.3,MA,broken clouds
Irbeyskoye,55.6428,95.4522,60.31,73,7,7.65,RU,clear sky
Zaozerne,45.1582,33.2787,69.94,62,0,9.86,UA,clear sky
Cockburn Town,21.4612,-71.1419,82.76,77,3,15.37,TC,clear sky
Portage,41.1667,-81.1998,83.98,56,40,5.75,US,scattered clouds
Timra,62.487,17.3257,67.68,65,98,3.44,SE,overcast clouds
Robe,-37.1833,139.75,50.07,59,88,29.06,AU,overcast clouds
Todos Santos,23.45,-110.2167,96.3,84,27,7.83,MX,scattered clouds
Faanui,-16.4833,-151.75,76.19,79,30,13.65,PF,light rain
Kandi,11.1342,2.9386,76.19,74,100,3.2,BJ,overcast clouds
Padang,-0.9492,100.3543,77.14,85,82,2.93,ID,broken clouds
Hambantota,6.1241,81.1185,79.2,83,86,14.03,LK,overcast clouds
Husavik,66.0449,-17.3389,66.11,89,56,8.19,IS,broken clouds
Komsomolskiy,40.4272,71.7189,81.82,36,0,9.22,UZ,clear sky
Sungaipenuh,-2.0833,101.3833,64.09,95,68,2.19,ID,broken clouds
Cabedelo,-6.9811,-34.8339,79.47,75,2,16.42,BR,clear sky
Harper,4.375,-7.7169,76.44,69,99,4.25,LR,overcast clouds
Sola,-13.8833,167.55,79.99,78,28,11.34,VU,scattered clouds
Marsabit,2.3284,37.9899,70.47,32,99,20.04,KE,overcast clouds
Te Anau,-45.4167,167.7167,38.43,90,100,2.68,NZ,overcast clouds
Shelburne,44.0787,-80.2041,67.77,95,100,15.12,CA,light rain
Kintampo,8.0563,-1.7306,76.35,70,99,4.09,GH,overcast clouds
Orzinuovi,45.404,9.9216,83.44,58,46,5.17,IT,scattered clouds
Umm Lajj,25.0213,37.2685,87.62,39,0,9.28,SA,clear sky
Ketchikan,55.3422,-131.6461,60.57,74,87,8.66,US,light rain
Half Moon Bay,37.4636,-122.4286,91.92,64,1,1.99,US,clear sky
Porto Torres,40.835,8.3972,86.18,61,14,4.94,IT,few clouds
Pulandian,39.3953,121.9669,78.93,88,29,1.36,CN,scattered clouds
Taber,49.8167,-112.1518,87.28,28,4,2.3,CA,clear sky
Tonantins,-2.8731,-67.8022,80.94,82,62,1.88,BR,broken clouds
Guilin,25.2819,110.2864,77.11,88,22,3.98,CN,few clouds
Manono,-7.3,27.4167,77.38,27,1,5.1,CD,clear sky
Springfield,37.2153,-93.2982,93.42,58,1,5.99,US,clear sky
Hasaki,35.7333,140.8333,73.8,84,0,7.56,JP,clear sky
Leshukonskoye,64.8989,45.7622,45.21,95,95,5.86,RU,light rain
Rocha,-34.4833,-54.3333,59.22,84,100,7.49,UY,overcast clouds
Camocim,-2.9022,-40.8411,83.61,62,23,16.13,BR,few clouds
Bangassou,4.7413,22.8184,70.9,89,100,1.86,CF,light rain
Lavrentiya,65.5833,-171.0,45.52,98,100,10.94,RU,light rain
Tulle,45.3333,1.8333,61.99,85,68,1.63,FR,broken clouds
Ushtobe,45.2514,77.9838,76.71,30,0,8.01,KZ,clear sky
Jiaojiang,28.6803,121.4428,77.0,93,100,26.69,CN,light rain
Mnogovershinnyy,53.9353,139.9242,67.59,85,82,2.55,RU,broken clouds
Dublin,37.7021,-121.9358,95.54,38,1,8.99,US,clear sky
Suntar,62.1444,117.6319,57.04,85,8,5.53,RU,clear sky
Kurilsk,45.2333,147.8833,64.11,88,100,3.87,RU,overcast clouds
Kijang,35.2442,129.2139,80.33,93,100,7.9,KR,overcast clouds
Conselheiro Lafaiete,-20.6603,-43.7861,67.57,36,0,9.04,BR,clear sky
Haines Junction,60.7522,-137.5108,60.75,51,74,6.91,CA,broken clouds
Yemtsa,63.0734,40.3329,52.18,62,100,6.42,RU,overcast clouds
General Roca,-39.0333,-67.5833,52.2,28,92,6.82,AR,overcast clouds
Taksimo,56.3444,114.8794,60.33,74,100,4.14,RU,overcast clouds
Gwadar,25.1216,62.3254,82.24,82,99,8.21,PK,overcast clouds
Mahina,-17.5065,-149.489,82.17,61,20,11.5,PF,few clouds
Sao Joao Da Barra,-21.6403,-41.0511,73.49,63,0,12.66,BR,clear sky
Sabha,27.0377,14.4283,84.87,19,0,9.04,LY,clear sky
Kalka,30.8344,76.9333,80.6,77,100,4.09,IN,overcast clouds
Phan Thiet,10.9333,108.1,78.73,81,84,14.09,VN,broken clouds
Jinji,23.2281,110.8261,77.85,91,73,0.58,CN,light rain
Altamira,-3.2033,-52.2064,91.49,46,40,4.61,BR,scattered clouds
Acapulco,16.8634,-99.8901,85.82,79,20,8.05,MX,few clouds
Semnan,35.5729,53.3971,87.98,37,0,9.04,IR,clear sky
Pisco,-13.7,-76.2167,66.25,68,0,9.22,PE,clear sky
Veraval,20.9,70.3667,82.06,83,93,17.43,IN,overcast clouds
Macusani,-14.0833,-70.4333,46.87,39,3,14.14,PE,clear sky
Mahebourg,-20.4081,57.7,70.09,83,20,9.22,MU,few clouds
Umuarama,-23.7664,-53.325,76.1,41,0,6.62,BR,clear sky
Nykoping,58.753,17.0079,69.66,60,0,3.44,SE,clear sky
Tiksi,71.6872,128.8694,40.42,85,31,5.75,RU,scattered clouds
Thunder Bay,48.4001,-89.3168,89.29,28,1,10.36,CA,smoke
San Pedro,14.35,121.0167,80.15,91,100,17.58,PH,overcast clouds
Mmathubudukwane,-24.6,26.4333,47.26,37,0,3.6,BW,clear sky
Wyndham,37.6985,-77.6125,87.87,71,96,1.01,US,light rain
Bogdana,43.9333,25.0833,65.01,55,2,6.91,RO,clear sky
Pafos,34.7667,32.4167,80.51,89,0,5.75,CY,clear sky
Sinnamary,5.3833,-52.95,80.8,83,100,11.18,GF,light rain
Urazovka,55.4013,45.6186,52.86,69,21,2.84,RU,few clouds
Abaza,52.655,90.0928,64.2,97,100,4.09,RU,overcast clouds
Ukiah,39.1502,-123.2078,105.44,21,1,5.75,US,clear sky
Islamkot,24.6997,70.177,83.91,76,100,17.05,PK,overcast clouds
Qaqortoq,60.7167,-46.0333,50.5,90,84,8.03,GL,broken clouds
Alta Floresta,-9.8756,-56.0861,94.82,28,20,6.91,BR,few clouds
Kuryk,43.2,51.65,82.87,53,0,16.11,KZ,clear sky
Dawei,14.0833,98.2,75.54,97,100,4.09,MM,overcast clouds
Campo Maior,-4.8278,-42.1686,95.11,24,34,5.3,BR,scattered clouds
Hamilton,39.1834,-84.5333,89.94,57,75,1.99,US,broken clouds
Florianopolis,-27.6146,-48.5012,71.26,74,0,5.75,BR,clear sky
Kensington,-33.9167,151.2167,52.72,59,0,24.16,AU,clear sky
Fredericksburg,38.3032,-77.4605,88.83,62,75,1.01,US,haze
Dingle,10.9995,122.6711,78.12,86,96,11.99,PH,overcast clouds
Oussouye,12.485,-16.5469,84.38,68,90,8.23,SN,overcast clouds
Markova,48.6758,24.4138,62.47,79,83,4.45,UA,broken clouds
Watertown,42.3709,-71.1828,85.3,48,40,3.0,US,scattered clouds
Zyryanka,65.75,150.85,63.73,57,100,1.61,RU,overcast clouds
Vydrino,51.485,104.8461,54.88,69,54,4.23,RU,broken clouds
Quatre Cocos,-20.2078,57.7625,69.91,80,26,9.95,MU,scattered clouds
Mekhe,15.1097,-16.6218,81.16,63,31,13.09,SN,scattered clouds
Dingzhou,38.5131,114.9956,77.11,87,4,0.47,CN,clear sky
Ascension,30.2169,-90.9001,98.6,59,40,3.44,US,scattered clouds
Kemerovo,55.3333,86.0833,65.89,94,0,0.0,RU,light rain
Zadar,44.1197,15.2422,80.65,53,0,6.91,HR,clear sky
Arman,59.7,150.1667,55.11,97,100,4.92,RU,overcast clouds
Hazorasp,41.3194,61.0742,80.44,12,0,8.3,UZ,clear sky
Taganak,6.0833,118.3,80.74,78,80,10.74,PH,broken clouds
Chicama,-7.8447,-79.1469,66.74,62,6,10.04,PE,clear sky
Kropotkin,45.4375,40.5756,73.8,44,77,7.0,RU,broken clouds
Gornopravdinsk,60.05,69.9,52.41,95,88,2.82,RU,overcast clouds
Tornio,65.8481,24.1466,57.22,86,95,10.4,FI,overcast clouds
Lalin,42.7167,-8.1167,62.33,83,29,4.25,ES,scattered clouds
San Lawrenz,36.0553,14.204,79.86,67,0,5.77,MT,clear sky
Brazzaville,-4.2658,15.2832,73.76,78,4,5.75,CG,clear sky
Oranjemund,-28.55,16.4333,64.53,22,23,6.6,NA,few clouds
Marilia,-22.2139,-49.9458,79.36,23,0,5.55,BR,clear sky
Sioux Lookout,50.1001,-91.917,80.98,41,90,17.27,CA,smoke
Tazmalt,36.3868,4.3989,92.3,24,81,3.09,DZ,broken clouds
Biloela,-24.4167,150.5,50.07,58,0,5.21,AU,clear sky
Micheweni,-4.9667,39.8333,76.12,73,1,18.84,TZ,clear sky
Matadi,-5.8167,13.45,75.07,74,0,8.7,CD,clear sky
Buin,-33.7333,-70.75,52.12,72,100,4.68,CL,light rain
Bilibino,68.0546,166.4372,52.52,63,12,1.32,RU,few clouds
Kapoeta,4.7717,33.5903,71.85,86,100,5.3,SS,overcast clouds
Bagotville,-28.9833,153.4167,56.64,55,0,6.76,AU,clear sky
Novobiryusinskiy,56.9578,97.7076,61.88,71,100,4.68,RU,overcast clouds
Morshansk,53.4435,41.8107,61.77,60,88,3.15,RU,overcast clouds
Ostrovnoy,68.0531,39.5131,48.45,91,97,16.73,RU,overcast clouds
Viedma,-40.8135,-62.9967,50.49,41,100,11.03,AR,overcast clouds
Pangody,65.85,74.4859,54.28,94,100,5.97,RU,overcast clouds
Monte Patria,-30.6919,-70.9467,53.55,69,98,4.76,CL,overcast clouds
Aksu,41.1231,80.2644,82.99,37,0,3.29,CN,clear sky
Green Valley,31.8543,-110.9937,73.99,92,100,1.32,US,light rain
Ballina,-28.8667,153.5667,56.79,51,0,9.82,AU,clear sky
Carman,49.4992,-98.0016,84.9,30,0,17.27,CA,clear sky
Galesong,-5.3166,119.3661,66.22,65,29,6.89,ID,scattered clouds
Chapais,49.7834,-74.8492,76.78,32,100,13.27,CA,overcast clouds
Sena Madureira,-9.0656,-68.6569,97.54,25,2,1.63,BR,clear sky
Chaiya,9.3862,99.1986,78.8,84,100,4.36,TH,moderate rain
Aksarka,66.5606,67.7975,57.04,66,50,13.11,RU,scattered clouds
Mogocha,53.7333,119.7667,56.8,99,100,3.51,RU,light rain
Penzance,50.1186,-5.5371,65.08,90,59,12.64,GB,broken clouds
Muros,42.7762,-9.0603,66.7,93,49,1.86,ES,scattered clouds
Cabuyaro,4.2817,-72.794,84.81,62,100,5.12,CO,light rain
Verkhneyarkeyevo,55.4505,54.3145,55.87,86,67,6.69,RU,broken clouds
Hokitika,-42.7167,170.9667,46.67,82,92,7.78,NZ,overcast clouds
Bonnyville,54.2668,-110.735,76.32,25,8,20.87,CA,clear sky
Thanh Hoa,19.8,105.7667,76.98,93,16,4.76,VN,few clouds
Sheksna,59.21,38.5107,49.96,60,77,1.7,RU,broken clouds
Kristiinankaupunki,62.2743,21.376,58.08,81,24,6.91,FI,few clouds
Labuhan,-6.8844,112.2051,72.79,85,5,6.73,ID,clear sky
Vardo,70.3705,31.1107,46.11,83,100,27.72,NO,overcast clouds
Puerto Escondido,15.85,-97.0667,92.23,66,40,10.36,MX,scattered clouds
Tukrah,32.5341,20.5791,78.69,74,0,10.92,LY,clear sky
Jacareacanga,-6.2222,-57.7528,97.88,23,99,3.74,BR,overcast clouds
Nichinan,31.6,131.3667,77.76,90,100,11.14,JP,overcast clouds
Gloversville,43.0528,-74.3438,82.29,54,1,5.99,US,clear sky
Celestun,20.8667,-90.4,86.13,68,17,14.05,MX,few clouds
Tiarei,-17.5333,-149.3333,82.42,73,32,10.67,PF,scattered clouds
Shibetsu,43.659,145.132,66.18,98,96,7.29,JP,overcast clouds
Impfondo,1.6381,18.0667,76.62,59,32,1.32,CG,scattered clouds
Kitgum,3.2783,32.8867,68.0,81,100,1.52,UG,overcast clouds
Santiago Del Estero,-27.7951,-64.2615,78.8,26,94,3.78,AR,overcast clouds
Agnibilekrou,7.1344,-3.2047,72.55,82,67,2.39,CI,broken clouds
Changli,39.7042,119.1506,73.38,88,15,2.91,CN,light rain
Amazar,53.858,120.875,57.69,98,100,2.21,RU,light rain
Hammerfest,70.6634,23.6821,45.05,87,90,11.5,NO,overcast clouds
Martyush,56.4,61.8819,61.88,70,84,2.13,RU,broken clouds
San Borja,-14.8167,-66.85,91.89,28,0,5.28,BO,clear sky
Najran,17.4924,44.1277,84.85,37,80,7.61,SA,broken clouds
Itarema,-2.9248,-39.9167,80.87,66,41,16.55,BR,scattered clouds
Mitha Tiwana,32.2486,72.1108,98.02,38,0,6.26,PK,clear sky
Nola,40.922,14.5329,81.21,71,7,2.73,IT,clear sky
Caborca,30.5838,-111.101,81.99,51,100,5.48,MX,light rain
Lonevag,60.5262,5.4937,68.2,89,63,2.21,NO,broken clouds
Shenjiamen,29.9576,122.298,79.41,90,100,48.77,CN,light rain
Praia,14.9215,-23.5087,77.54,65,75,9.22,CV,broken clouds
Miyako,39.6367,141.9525,71.46,90,30,3.49,JP,scattered clouds
Xique-Xique,-10.8218,-42.7263,80.87,48,66,13.4,BR,broken clouds
Kargasok,59.0556,80.8572,64.24,72,6,6.69,RU,clear sky
Qandala,11.472,49.8728,88.7,51,55,14.56,SO,broken clouds
Taoudenni,22.6783,-3.9836,104.61,7,3,9.42,ML,clear sky
Tual,-5.6667,132.75,78.24,81,100,12.24,ID,overcast clouds
Inverkeithing,56.033,-3.3956,67.89,83,0,9.22,GB,clear sky
Sokoni,-6.4333,39.55,76.26,75,75,22.48,TZ,light rain
Saint-Augustin,51.226,-58.6502,58.69,66,8,9.19,CA,clear sky
Cartagena,10.3997,-75.5144,87.42,74,40,16.11,CO,scattered clouds
Rafaela,-31.2503,-61.4867,75.99,40,21,1.01,AR,few clouds
Maravatio,19.9,-100.45,74.71,44,17,5.3,MX,few clouds
Concarneau,47.875,-3.9225,65.05,91,35,10.16,FR,scattered clouds
Le Port,-20.9373,55.2919,68.0,77,54,5.59,RE,broken clouds
Champerico,14.3,-91.9167,91.29,70,99,5.55,GT,overcast clouds
Vila Franca Do Campo,37.7167,-25.4333,72.01,81,11,8.05,PT,few clouds
Hualmay,-11.0964,-77.6139,66.61,74,20,9.24,PE,few clouds
Bowen,-20.0167,148.2333,63.27,53,5,11.23,AU,clear sky
Gubkinskiy,64.434,76.5026,55.15,96,100,11.74,RU,overcast clouds
Vidim,56.4088,103.1106,58.37,73,6,4.0,RU,clear sky
Brigantine,39.4101,-74.3646,85.5,59,20,9.22,US,few clouds
Cambuci,-21.5753,-41.9111,72.84,56,0,4.03,BR,clear sky
Colares,38.7992,-9.4469,69.48,70,20,5.01,PT,few clouds
Miyang,24.4042,103.4428,65.89,98,100,4.54,CN,light rain
Evanton,57.6638,-4.34,65.14,92,20,2.51,GB,few clouds
Desbiens,48.4178,-71.9495,83.05,45,100,6.22,CA,overcast clouds
Alice Town,25.7167,-79.3,83.5,69,100,16.93,BS,overcast clouds
Sampit,-2.5333,112.95,72.05,94,8,2.64,ID,clear sky
Wloclawek,52.6482,19.0678,70.41,67,87,6.91,PL,overcast clouds
Oistins,13.0667,-59.5333,86.09,70,20,10.36,BB,few clouds
Itatinga,-23.1017,-48.6158,72.77,28,0,3.02,BR,clear sky
Koindu,8.4386,-10.3253,69.15,98,94,2.95,GN,overcast clouds
Kenai,60.5544,-151.2583,59.09,92,90,11.5,US,overcast clouds
Worland,44.0169,-107.9554,92.68,20,1,1.99,US,clear sky
Ornskoldsvik,63.2909,18.7153,67.15,68,87,4.61,SE,overcast clouds
Kushima,31.4583,131.2333,78.12,92,100,11.34,JP,overcast clouds
Lyngseidet,69.5763,20.2189,51.48,99,100,4.16,NO,light rain
Vrnjacka Banja,43.6167,20.9,67.24,62,0,3.62,RS,clear sky
Tibu,8.639,-72.7358,92.57,47,100,3.89,CO,overcast clouds
Nome,64.5011,-165.4064,49.15,87,90,6.91,US,overcast clouds
Cooma,-36.2333,149.1333,33.57,80,40,23.02,AU,scattered clouds
Mecca,21.4267,39.8261,88.61,34,68,6.67,SA,broken clouds
Taltal,-25.4,-70.4833,60.85,68,19,7.18,CL,few clouds
Hojai,26.0,92.8667,79.32,86,100,3.87,IN,overcast clouds
Tabas,33.5959,56.9244,95.68,9,0,12.12,IR,clear sky
Karasjok,69.4719,25.5112,48.31,76,100,11.27,NO,overcast clouds
Hobyo,5.3505,48.5268,77.99,73,54,27.98,SO,broken clouds
Omboue,-1.5746,9.2618,73.72,75,70,7.54,GA,broken clouds
Almazar,40.3217,69.0106,85.71,17,0,8.03,UZ,clear sky
Mancora,-4.1078,-81.0475,72.18,75,49,13.53,PE,scattered clouds
Pangai,-19.8,-174.35,78.1,79,0,3.8,TO,light rain
Camana,-16.6228,-72.7111,63.9,74,50,10.36,PE,scattered clouds
Letlhakane,-21.4167,25.5833,51.4,52,0,15.75,BW,clear sky
Coihaique,-45.5752,-72.0662,39.81,81,0,3.44,CL,clear sky
Suhbaatar,50.2314,106.2078,58.21,68,57,4.03,MN,broken clouds
Gauripur,26.0835,89.9616,79.83,91,100,5.82,IN,overcast clouds
Teguise,29.0605,-13.564,70.02,78,20,19.57,ES,few clouds
Apata,45.95,25.5167,63.91,74,17,2.98,RO,few clouds
Manado,1.487,124.8455,75.97,88,40,0.0,ID,scattered clouds
Perafita,41.1825,-8.2545,63.21,84,53,3.67,PT,broken clouds
Kolpashevo,58.3131,82.9089,61.86,73,3,3.74,RU,clear sky
Acajutla,13.5928,-89.8275,97.14,56,100,6.69,SV,overcast clouds
Yaan,7.3833,8.5667,72.32,92,100,2.91,NG,light rain
Rettikhovka,44.1683,132.7669,69.26,85,12,3.71,RU,few clouds
Maralal,1.0968,36.698,59.43,82,100,2.8,KE,light rain
Zambrow,52.9855,22.2432,68.2,62,99,3.22,PL,overcast clouds
Itacoatiara,-3.1431,-58.4442,93.13,38,100,3.06,BR,overcast clouds
Port Moresby,-9.4431,147.1797,73.92,91,100,3.98,PG,overcast clouds
Makkaveyevo,51.7533,113.9454,56.12,84,72,3.58,RU,broken clouds
Sorland,67.667,12.6934,52.25,95,100,15.77,NO,overcast clouds
Yambio,4.5721,28.3955,68.41,92,76,2.57,SS,broken clouds
Kalevala,65.2,31.1667,55.08,64,100,6.04,RU,overcast clouds
Strezhevoy,60.7333,77.5889,62.58,92,89,11.25,RU,overcast clouds
Omsukchan,62.5333,155.8,53.51,86,98,5.88,RU,overcast clouds
Pokhara,28.2333,83.9833,74.12,97,99,0.65,NP,overcast clouds
Shunyi,40.125,116.6453,80.83,94,47,4.47,CN,scattered clouds
Fallon,39.4735,-118.7774,96.58,10,20,5.75,US,smoke
Hervey Bay,-25.2986,152.8535,57.04,55,1,10.2,AU,clear sky
Kinkala,-4.3614,14.7644,71.91,47,4,3.69,CG,clear sky
Havre-Saint-Pierre,50.2334,-63.5986,64.76,59,1,5.75,CA,clear sky
Biltine,14.5333,20.9167,87.76,48,100,11.68,TD,overcast clouds
Cherdyn,60.403,56.4787,43.72,72,43,4.47,RU,scattered clouds
Tobol,52.6844,62.5794,63.77,86,87,8.32,KZ,overcast clouds
Debre Birhan,9.6833,39.5333,52.52,88,100,3.09,ET,light rain
Sompeta,18.9333,84.6,82.76,78,100,5.82,IN,overcast clouds
Valera,9.3178,-70.6036,83.46,71,100,2.51,VE,overcast clouds
Arteaga,18.4667,-102.4167,77.77,69,86,1.66,MX,overcast clouds
College,64.8569,-147.8028,62.26,87,40,5.99,US,scattered clouds
Ayr,55.4627,-4.6339,67.98,77,0,2.3,GB,clear sky
Dukat,62.55,155.55,53.15,83,99,5.12,RU,overcast clouds
Pacific Grove,36.6177,-121.9166,83.8,78,1,5.01,US,clear sky
Lulea,65.5842,22.1547,62.67,67,0,5.75,SE,clear sky
Kinsale,51.7075,-8.5306,63.77,82,75,4.61,IE,broken clouds
Roald,62.5833,6.1333,62.91,94,90,2.3,NO,mist
Troina,37.7854,14.5985,71.1,37,0,1.97,IT,clear sky
Weyburn,49.6668,-103.8511,82.62,23,0,17.27,CA,clear sky
Fort Nelson,58.8053,-122.7002,69.39,43,75,11.5,CA,broken clouds
Farah,32.5,62.5,89.56,11,5,4.65,AF,clear sky
